{
    "directed": true,
    "multigraph": false,
    "graph": {},
    "nodes": [
        {
            "name": "Shenzhen Bao'an International Airport",
            "city": "Shenzhen",
            "country": "China",
            "latitude": 22.639299392700195,
            "longitude": 113.81099700927734,
            "id": "SZX"
        },
        {
            "name": "Hangzhou Xiaoshan International Airport",
            "city": "Hangzhou",
            "country": "China",
            "latitude": 30.22949981689453,
            "longitude": 120.43399810791016,
            "id": "HGH"
        },
        {
            "name": "Hong Kong International Airport",
            "city": "Hong Kong",
            "country": "Hong Kong",
            "latitude": 22.308901,
            "longitude": 113.915001,
            "id": "HKG"
        },
        {
            "name": "Los Angeles International Airport",
            "city": "Los Angeles",
            "country": "United States",
            "latitude": 33.94250107,
            "longitude": -118.4079971,
            "id": "LAX"
        },
        {
            "name": "Sydney Kingsford Smith International Airport",
            "city": "Sydney",
            "country": "Australia",
            "latitude": -33.94609832763672,
            "longitude": 151.177001953125,
            "id": "SYD"
        },
        {
            "name": "Dallas Fort Worth International Airport",
            "city": "Dallas-Fort Worth",
            "country": "United States",
            "latitude": 32.896801,
            "longitude": -97.038002,
            "id": "DFW"
        },
        {
            "name": "Lester B. Pearson International Airport",
            "city": "Toronto",
            "country": "Canada",
            "latitude": 43.6772003174,
            "longitude": -79.63059997559999,
            "id": "YYZ"
        },
        {
            "name": "General Edward Lawrence Logan International Airport",
            "city": "Boston",
            "country": "United States",
            "latitude": 42.36429977,
            "longitude": -71.00520325,
            "id": "BOS"
        },
        {
            "name": "Hartsfield Jackson Atlanta International Airport",
            "city": "Atlanta",
            "country": "United States",
            "latitude": 33.6367,
            "longitude": -84.428101,
            "id": "ATL"
        },
        {
            "name": "Incheon International Airport",
            "city": "Seoul",
            "country": "South Korea",
            "latitude": 37.46910095214844,
            "longitude": 126.45099639892578,
            "id": "ICN"
        },
        {
            "name": "Suvarnabhumi Airport",
            "city": "Bangkok",
            "country": "Thailand",
            "latitude": 13.681099891662598,
            "longitude": 100.74700164794922,
            "id": "BKK"
        },
        {
            "name": "Taiwan Taoyuan International Airport",
            "city": "Taipei",
            "country": "Taiwan",
            "latitude": 25.0777,
            "longitude": 121.233002,
            "id": "TPE"
        },
        {
            "name": "Frankfurt am Main Airport",
            "city": "Frankfurt",
            "country": "Germany",
            "latitude": 50.033333,
            "longitude": 8.570556,
            "id": "FRA"
        },
        {
            "name": "John F Kennedy International Airport",
            "city": "New York",
            "country": "United States",
            "latitude": 40.63980103,
            "longitude": -73.77890015,
            "id": "JFK"
        },
        {
            "name": "Licenciado Benito Juarez International Airport",
            "city": "Mexico City",
            "country": "Mexico",
            "latitude": 19.4363,
            "longitude": -99.072098,
            "id": "MEX"
        },
        {
            "name": "Newark Liberty International Airport",
            "city": "Newark",
            "country": "United States",
            "latitude": 40.69250106811523,
            "longitude": -74.168701171875,
            "id": "EWR"
        },
        {
            "name": "Charlotte Douglas International Airport",
            "city": "Charlotte",
            "country": "United States",
            "latitude": 35.2140007019043,
            "longitude": -80.94309997558594,
            "id": "CLT"
        },
        {
            "name": "McCarran International Airport",
            "city": "Las Vegas",
            "country": "United States",
            "latitude": 36.08010101,
            "longitude": -115.1520004,
            "id": "LAS"
        },
        {
            "name": "George Bush Intercontinental Houston Airport",
            "city": "Houston",
            "country": "United States",
            "latitude": 29.98439979553223,
            "longitude": -95.34140014648438,
            "id": "IAH"
        },
        {
            "name": "Jorge Ch\u00e1vez International Airport",
            "city": "Lima",
            "country": "Peru",
            "latitude": -12.0219,
            "longitude": -77.114305,
            "id": "LIM"
        }
    ],
    "links": [
        {
            "distance": 2069.7283105905153,
            "used": 1,
            "source": "HKG",
            "target": "ICN"
        },
        {
            "distance": 1694.7999229712314,
            "used": 1,
            "source": "DFW",
            "target": "LAS"
        },
        {
            "distance": 1983.1744750180915,
            "used": 1,
            "source": "DFW",
            "target": "LAX"
        },
        {
            "distance": 10616.636586759902,
            "used": 2,
            "source": "YYZ",
            "target": "ICN"
        },
        {
            "distance": 2509.2689055120973,
            "used": 1,
            "source": "BOS",
            "target": "DFW"
        },
        {
            "distance": 1199.3163539241523,
            "used": 1,
            "source": "ATL",
            "target": "EWR"
        },
        {
            "distance": 364.56708046970925,
            "used": 1,
            "source": "ATL",
            "target": "CLT"
        },
        {
            "distance": 11487.129708604221,
            "used": 2,
            "source": "ICN",
            "target": "ATL"
        },
        {
            "distance": 6211.031612436802,
            "used": 1,
            "source": "EWR",
            "target": "FRA"
        },
        {
            "distance": 3120.3096511247586,
            "used": 1,
            "source": "LAS",
            "target": "YYZ"
        },
        {
            "distance": 2060.0815779209825,
            "used": 1,
            "source": "IAH",
            "target": "YYZ"
        }
    ]
}