{
    "directed": true,
    "multigraph": false,
    "graph": {},
    "nodes": [
        {
            "name": "Barcelona International Airport",
            "city": "Barcelona",
            "country": "Spain",
            "latitude": 41.2971,
            "longitude": 2.07846,
            "id": "BCN"
        },
        {
            "name": "Singapore Changi Airport",
            "city": "Singapore",
            "country": "Singapore",
            "latitude": 1.35019,
            "longitude": 103.994003,
            "id": "SIN"
        },
        {
            "name": "Suvarnabhumi Airport",
            "city": "Bangkok",
            "country": "Thailand",
            "latitude": 13.681099891662598,
            "longitude": 100.74700164794922,
            "id": "BKK"
        },
        {
            "name": "Dubai International Airport",
            "city": "Dubai",
            "country": "United Arab Emirates",
            "latitude": 25.252799987800003,
            "longitude": 55.3643989563,
            "id": "DXB"
        },
        {
            "name": "Dallas Fort Worth International Airport",
            "city": "Dallas-Fort Worth",
            "country": "United States",
            "latitude": 32.896801,
            "longitude": -97.038002,
            "id": "DFW"
        },
        {
            "name": "Miami International Airport",
            "city": "Miami",
            "country": "United States",
            "latitude": 25.79319953918457,
            "longitude": -80.29060363769531,
            "id": "MIA"
        },
        {
            "name": "George Bush Intercontinental Houston Airport",
            "city": "Houston",
            "country": "United States",
            "latitude": 29.98439979553223,
            "longitude": -95.34140014648438,
            "id": "IAH"
        },
        {
            "name": "Beijing Capital International Airport",
            "city": "Beijing",
            "country": "China",
            "latitude": 40.0801010131836,
            "longitude": 116.58499908447266,
            "id": "PEK"
        },
        {
            "name": "Kuala Lumpur International Airport",
            "city": "Kuala Lumpur",
            "country": "Malaysia",
            "latitude": 2.745579957962,
            "longitude": 101.70999908446998,
            "id": "KUL"
        },
        {
            "name": "London Heathrow Airport",
            "city": "London",
            "country": "United Kingdom",
            "latitude": 51.4706,
            "longitude": -0.461941,
            "id": "LHR"
        },
        {
            "name": "Phoenix Sky Harbor International Airport",
            "city": "Phoenix",
            "country": "United States",
            "latitude": 33.43429946899414,
            "longitude": -112.01200103759766,
            "id": "PHX"
        },
        {
            "name": "San Francisco International Airport",
            "city": "San Francisco",
            "country": "United States",
            "latitude": 37.61899948120117,
            "longitude": -122.375,
            "id": "SFO"
        },
        {
            "name": "Los Angeles International Airport",
            "city": "Los Angeles",
            "country": "United States",
            "latitude": 33.94250107,
            "longitude": -118.4079971,
            "id": "LAX"
        },
        {
            "name": "Istanbul Airport",
            "city": "Istanbul",
            "country": "Turkey",
            "latitude": 41.275278,
            "longitude": 28.751944,
            "id": "IST"
        },
        {
            "name": "Lester B. Pearson International Airport",
            "city": "Toronto",
            "country": "Canada",
            "latitude": 43.6772003174,
            "longitude": -79.63059997559999,
            "id": "YYZ"
        },
        {
            "name": "Comodoro Arturo Merino Ben\u00edtez International Airport",
            "city": "Santiago",
            "country": "Chile",
            "latitude": -33.393001556396484,
            "longitude": -70.78579711914062,
            "id": "SCL"
        },
        {
            "name": "Jorge Ch\u00e1vez International Airport",
            "city": "Lima",
            "country": "Peru",
            "latitude": -12.0219,
            "longitude": -77.114305,
            "id": "LIM"
        },
        {
            "name": "Alfonso Bonilla Aragon International Airport",
            "city": "Cali",
            "country": "Colombia",
            "latitude": 3.54322,
            "longitude": -76.3816,
            "id": "CLO"
        },
        {
            "name": "Adolfo Su\u00e1rez Madrid\u2013Barajas Airport",
            "city": "Madrid",
            "country": "Spain",
            "latitude": 40.471926,
            "longitude": -3.56264,
            "id": "MAD"
        },
        {
            "name": "Hamad International Airport",
            "city": "Doha",
            "country": "Qatar",
            "latitude": 25.273056,
            "longitude": 51.608056,
            "id": "DOH"
        }
    ],
    "links": [
        {
            "distance": 19.45943506481107,
            "used": 2,
            "source": "DXB",
            "target": "IAH"
        },
        {
            "distance": 19.202652673949963,
            "used": 1,
            "source": "DXB",
            "target": "DFW"
        },
        {
            "distance": 10.043055067221564,
            "used": 1,
            "source": "MIA",
            "target": "MAD"
        },
        {
            "distance": 7.285778380951488,
            "used": 1,
            "source": "KUL",
            "target": "DXB"
        },
        {
            "distance": 11.606820570953776,
            "used": 1,
            "source": "LHR",
            "target": "PHX"
        },
        {
            "distance": 5.353405478596752,
            "used": 1,
            "source": "PHX",
            "target": "MIA"
        },
        {
            "distance": 17.52787528381138,
            "used": 1,
            "source": "LAX",
            "target": "DXB"
        },
        {
            "distance": 13.324190160832195,
            "used": 1,
            "source": "LAX",
            "target": "PEK"
        },
        {
            "distance": 16.042515046569974,
            "used": 1,
            "source": "IST",
            "target": "LAX"
        }
    ]
}